{
  "description": "Cache for Indian Pincode geospatial data. Format: { pincode: { lat: float, lon: float, city: string, state: string } }",
  "data": {
    "110001": {
      "lat": 28.6139,
      "lon": 77.2090,
      "city": "New Delhi",
      "state": "Delhi"
    },
    "400001": {
      "lat": 19.0760,
      "lon": 72.8777,
      "city": "Mumbai",
      "state": "Maharashtra"
    },
    "600001": {
      "lat": 13.0827,
      "lon": 80.2707,
      "city": "Chennai",
      "state": "Tamil Nadu"
    },
    "700001": {
      "lat": 22.5726,
      "lon": 88.3639,
      "city": "Kolkata",
      "state": "West Bengal"
    },
    "560001": {
      "lat": 12.9716,
      "lon": 77.5946,
      "city": "Bengaluru",
      "state": "Karnataka"
    },
    "302001": {
      "lat": 26.9124,
      "lon": 75.7921,
      "city": "Jaipur",
      "state": "Rajasthan"
    },
    "110011": {
      "lat": 28.6448,
      "lon": 77.1588,
      "city": "New Delhi",
      "state": "Delhi"
    },
    "400020": {
      "lat": 19.0664,
      "lon": 72.9004,
      "city": "Mumbai",
      "state": "Maharashtra"
    }
  }
}
